[
  {
    "station_id": "aqicn--543139",
    "uid": -543139,
    "name": "Kabupaten Nabire",
    "city": "Kabupaten Nabire",
    "country": "ID",
    "provider": "AQICN",
    "lat": -3.3633499145507812,
    "lon": 135.50100708007812,
    "params": [],
    "last_update": null,
    "meta": {
      "uid": -543139,
      "name": "Kabupaten Nabire",
      "city": "Kabupaten Nabire",
      "lat": -3.3633499145507812,
      "lon": 135.50100708007812
    }
  },
  {
    "station_id": "aqicn--416884",
    "uid": -416884,
    "name": "Kabupaten Indragiri Hilir",
    "city": "Kabupaten Indragiri Hilir",
    "country": "ID",
    "provider": "AQICN",
    "lat": -0.3120580017566681,
    "lon": 103.16100311279297,
    "params": [],
    "last_update": null,
    "meta": {
      "uid": -416884,
      "name": "Kabupaten Indragiri Hilir",
      "city": "Kabupaten Indragiri Hilir",
      "lat": -0.3120580017566681,
      "lon": 103.16100311279297
    }
  },
  {
    "station_id": "aqicn--519118",
    "uid": -519118,
    "name": "Kabupaten Sintang Baning Kota",
    "city": "Kabupaten Sintang Baning Kota",
    "country": "ID",
    "provider": "AQICN",
    "lat": 0.06317199766635895,
    "lon": 111.49700164794922,
    "params": [],
    "last_update": null,
    "meta": {
      "uid": -519118,
      "name": "Kabupaten Sintang Baning Kota",
      "city": "Kabupaten Sintang Baning Kota",
      "lat": 0.06317199766635895,
      "lon": 111.49700164794922
    }
  },
  {
    "station_id": "aqicn--531679",
    "uid": -531679,
    "name": "KBN Marunda Jakarta Utara",
    "city": "KBN Marunda Jakarta Utara",
    "country": "ID",
    "provider": "AQICN",
    "lat": -6.108980178833008,
    "lon": 106.94400024414062,
    "params": [],
    "last_update": null,
    "meta": {
      "uid": -531679,
      "name": "KBN Marunda Jakarta Utara",
      "city": "KBN Marunda Jakarta Utara",
      "lat": -6.108980178833008,
      "lon": 106.94400024414062
    }
  },
  {
    "station_id": "aqicn--532006",
    "uid": -532006,
    "name": "Kabupaten Bengkayang Sebalo",
    "city": "Kabupaten Bengkayang Sebalo",
    "country": "ID",
    "provider": "AQICN",
    "lat": 0.8644959926605225,
    "lon": 109.4990005493164,
    "params": [],
    "last_update": null,
    "meta": {
      "uid": -532006,
      "name": "Kabupaten Bengkayang Sebalo",
      "city": "Kabupaten Bengkayang Sebalo",
      "lat": 0.8644959926605225,
      "lon": 109.4990005493164
    }
  },
  {
    "station_id": "aqicn--519130",
    "uid": -519130,
    "name": "Kabupaten Pasuruan Raci",
    "city": "Kabupaten Pasuruan Raci",
    "country": "ID",
    "provider": "AQICN",
    "lat": -7.610300064086914,
    "lon": 112.83000183105469,
    "params": [],
    "last_update": null,
    "meta": {
      "uid": -519130,
      "name": "Kabupaten Pasuruan Raci",
      "city": "Kabupaten Pasuruan Raci",
      "lat": -7.610300064086914,
      "lon": 112.83000183105469
    }
  },
  {
    "station_id": "aqicn--517159",
    "uid": -517159,
    "name": "Kabutapen Penajam Paser Utara Nipah Nipah",
    "city": "Kabutapen Penajam Paser Utara Nipah Nipah",
    "country": "ID",
    "provider": "AQICN",
    "lat": -1.310829997062683,
    "lon": 116.7249984741211,
    "params": [],
    "last_update": null,
    "meta": {
      "uid": -517159,
      "name": "Kabutapen Penajam Paser Utara Nipah Nipah",
      "city": "Kabutapen Penajam Paser Utara Nipah Nipah",
      "lat": -1.310829997062683,
      "lon": 116.7249984741211
    }
  },
  {
    "station_id": "aqicn--519016",
    "uid": -519016,
    "name": "Kota Madiun Taman",
    "city": "Kota Madiun Taman",
    "country": "ID",
    "provider": "AQICN",
    "lat": -7.6532697677612305,
    "lon": 111.52300262451172,
    "params": [],
    "last_update": null,
    "meta": {
      "uid": -519016,
      "name": "Kota Madiun Taman",
      "city": "Kota Madiun Taman",
      "lat": -7.6532697677612305,
      "lon": 111.52300262451172
    }
  },
  {
    "station_id": "aqicn-13654",
    "uid": 13654,
    "name": "Sorong, Indonesia",
    "city": "Sorong",
    "country": "ID",
    "provider": "AQICN",
    "lat": -0.8634105,
    "lon": 131.2544805,
    "params": [],
    "last_update": null,
    "meta": {
      "uid": 13654,
      "name": "Sorong, Indonesia",
      "city": "Sorong",
      "lat": -0.8634105,
      "lon": 131.2544805
    }
  },
  {
    "station_id": "aqicn--416782",
    "uid": -416782,
    "name": "Kabupaten Barito Selatan Sanggu",
    "city": "Kabupaten Barito Selatan Sanggu",
    "country": "ID",
    "provider": "AQICN",
    "lat": -1.6793400049209595,
    "lon": 114.90799713134766,
    "params": [],
    "last_update": null,
    "meta": {
      "uid": -416782,
      "name": "Kabupaten Barito Selatan Sanggu",
      "city": "Kabupaten Barito Selatan Sanggu",
      "lat": -1.6793400049209595,
      "lon": 114.90799713134766
    }
  },
  {
    "station_id": "aqicn--472492",
    "uid": -472492,
    "name": "Kabupaten Indramayu Margadadi",
    "city": "Kabupaten Indramayu Margadadi",
    "country": "ID",
    "provider": "AQICN",
    "lat": -6.327040195465088,
    "lon": 108.3219985961914,
    "params": [],
    "last_update": null,
    "meta": {
      "uid": -472492,
      "name": "Kabupaten Indramayu Margadadi",
      "city": "Kabupaten Indramayu Margadadi",
      "lat": -6.327040195465088,
      "lon": 108.3219985961914
    }
  },
  {
    "station_id": "aqicn--520231",
    "uid": -520231,
    "name": "Kabupaten Muara Enim",
    "city": "Kabupaten Muara Enim",
    "country": "ID",
    "provider": "AQICN",
    "lat": -3.648560047149658,
    "lon": 103.7750015258789,
    "params": [],
    "last_update": null,
    "meta": {
      "uid": -520231,
      "name": "Kabupaten Muara Enim",
      "city": "Kabupaten Muara Enim",
      "lat": -3.648560047149658,
      "lon": 103.7750015258789
    }
  },
  {
    "station_id": "aqicn--399724",
    "uid": -399724,
    "name": "Bukit Bintang",
    "city": "Bukit Bintang",
    "country": "ID",
    "provider": "AQICN",
    "lat": 3.146015,
    "lon": 101.710211,
    "params": [],
    "last_update": null,
    "meta": {
      "uid": -399724,
      "name": "Bukit Bintang",
      "city": "Bukit Bintang",
      "lat": 3.146015,
      "lon": 101.710211
    }
  },
  {
    "station_id": "aqicn-8646",
    "uid": 8646,
    "name": "Indrapuri, Indonesia",
    "city": "Indrapuri",
    "country": "ID",
    "provider": "AQICN",
    "lat": 5.404,
    "lon": 95.475,
    "params": [],
    "last_update": null,
    "meta": {
      "uid": 8646,
      "name": "Indrapuri, Indonesia",
      "city": "Indrapuri",
      "lat": 5.404,
      "lon": 95.475
    }
  },
  {
    "station_id": "aqicn--416827",
    "uid": -416827,
    "name": "Kabupaten Bekasi Sukamahi",
    "city": "Kabupaten Bekasi Sukamahi",
    "country": "ID",
    "provider": "AQICN",
    "lat": -6.363800048828125,
    "lon": 107.1719970703125,
    "params": [],
    "last_update": null,
    "meta": {
      "uid": -416827,
      "name": "Kabupaten Bekasi Sukamahi",
      "city": "Kabupaten Bekasi Sukamahi",
      "lat": -6.363800048828125,
      "lon": 107.1719970703125
    }
  },
  {
    "station_id": "aqicn--541945",
    "uid": -541945,
    "name": "Kabupaten Nagan Raya",
    "city": "Kabupaten Nagan Raya",
    "country": "ID",
    "provider": "AQICN",
    "lat": 4.082280158996582,
    "lon": 96.16840362548828,
    "params": [],
    "last_update": null,
    "meta": {
      "uid": -541945,
      "name": "Kabupaten Nagan Raya",
      "city": "Kabupaten Nagan Raya",
      "lat": 4.082280158996582,
      "lon": 96.16840362548828
    }
  },
  {
    "station_id": "aqicn--416899",
    "uid": -416899,
    "name": "Balikpapan Sepinggan",
    "city": "Balikpapan Sepinggan",
    "country": "ID",
    "provider": "AQICN",
    "lat": -1.2427300214767456,
    "lon": 116.89199829101562,
    "params": [],
    "last_update": null,
    "meta": {
      "uid": -416899,
      "name": "Balikpapan Sepinggan",
      "city": "Balikpapan Sepinggan",
      "lat": -1.2427300214767456,
      "lon": 116.89199829101562
    }
  },
  {
    "station_id": "aqicn--416857",
    "uid": -416857,
    "name": "Depok Pancoran Mas",
    "city": "Depok Pancoran Mas",
    "country": "ID",
    "provider": "AQICN",
    "lat": -6.394780158996582,
    "lon": 106.8239974975586,
    "params": [],
    "last_update": null,
    "meta": {
      "uid": -416857,
      "name": "Depok Pancoran Mas",
      "city": "Depok Pancoran Mas",
      "lat": -6.394780158996582,
      "lon": 106.8239974975586
    }
  },
  {
    "station_id": "aqicn--565915",
    "uid": -565915,
    "name": "Kabupaten Kotawaringin Barat Madurejo",
    "city": "Kabupaten Kotawaringin Barat Madurejo",
    "country": "ID",
    "provider": "AQICN",
    "lat": -2.706120014190674,
    "lon": 111.61399841308594,
    "params": [],
    "last_update": null,
    "meta": {
      "uid": -565915,
      "name": "Kabupaten Kotawaringin Barat Madurejo",
      "city": "Kabupaten Kotawaringin Barat Madurejo",
      "lat": -2.706120014190674,
      "lon": 111.61399841308594
    }
  },
  {
    "station_id": "aqicn--416905",
    "uid": -416905,
    "name": "Tanjung Pinang Taman Pamedan",
    "city": "Tanjung Pinang Taman Pamedan",
    "country": "ID",
    "provider": "AQICN",
    "lat": 0.9077550172805786,
    "lon": 104.46399688720703,
    "params": [],
    "last_update": null,
    "meta": {
      "uid": -416905,
      "name": "Tanjung Pinang Taman Pamedan",
      "city": "Tanjung Pinang Taman Pamedan",
      "lat": 0.9077550172805786,
      "lon": 104.46399688720703
    }
  },
  {
    "station_id": "aqicn--535021",
    "uid": -535021,
    "name": "Kabupaten Siak Bunga Raya",
    "city": "Kabupaten Siak Bunga Raya",
    "country": "ID",
    "provider": "AQICN",
    "lat": 0.961001992225647,
    "lon": 102.072998046875,
    "params": [],
    "last_update": null,
    "meta": {
      "uid": -535021,
      "name": "Kabupaten Siak Bunga Raya",
      "city": "Kabupaten Siak Bunga Raya",
      "lat": 0.961001992225647,
      "lon": 102.072998046875
    }
  },
  {
    "station_id": "aqicn--531559",
    "uid": -531559,
    "name": "Kabupaten Asahan Sidomukti",
    "city": "Kabupaten Asahan Sidomukti",
    "country": "ID",
    "provider": "AQICN",
    "lat": 2.993459939956665,
    "lon": 99.61090087890625,
    "params": [],
    "last_update": null,
    "meta": {
      "uid": -531559,
      "name": "Kabupaten Asahan Sidomukti",
      "city": "Kabupaten Asahan Sidomukti",
      "lat": 2.993459939956665,
      "lon": 99.61090087890625
    }
  },
  {
    "station_id": "aqicn-8342",
    "uid": 8342,
    "name": "Palangka Raya, Indonesia",
    "city": "Palangka Raya",
    "country": "ID",
    "provider": "AQICN",
    "lat": -2.22611,
    "lon": 113.945,
    "params": [],
    "last_update": null,
    "meta": {
      "uid": 8342,
      "name": "Palangka Raya, Indonesia",
      "city": "Palangka Raya",
      "lat": -2.22611,
      "lon": 113.945
    }
  },
  {
    "station_id": "aqicn-13841",
    "uid": 13841,
    "name": "Maros, Indonesia",
    "city": "Maros",
    "country": "ID",
    "provider": "AQICN",
    "lat": -4.997,
    "lon": 119.57,
    "params": [],
    "last_update": null,
    "meta": {
      "uid": 13841,
      "name": "Maros, Indonesia",
      "city": "Maros",
      "lat": -4.997,
      "lon": 119.57
    }
  },
  {
    "station_id": "aqicn--416887",
    "uid": -416887,
    "name": "Mataram Sekarbela",
    "city": "Mataram Sekarbela",
    "country": "ID",
    "provider": "AQICN",
    "lat": -8.590279579162598,
    "lon": 116.09400177001953,
    "params": [],
    "last_update": null,
    "meta": {
      "uid": -416887,
      "name": "Mataram Sekarbela",
      "city": "Mataram Sekarbela",
      "lat": -8.590279579162598,
      "lon": 116.09400177001953
    }
  },
  {
    "station_id": "aqicn--532009",
    "uid": -532009,
    "name": "Kota Probolinggo Kedopok",
    "city": "Kota Probolinggo Kedopok",
    "country": "ID",
    "provider": "AQICN",
    "lat": -7.788430213928223,
    "lon": 113.20999908447266,
    "params": [],
    "last_update": null,
    "meta": {
      "uid": -532009,
      "name": "Kota Probolinggo Kedopok",
      "city": "Kota Probolinggo Kedopok",
      "lat": -7.788430213928223,
      "lon": 113.20999908447266
    }
  },
  {
    "station_id": "aqicn--416923",
    "uid": -416923,
    "name": "Kabupaten Bulungan Tj. Selor Hilir",
    "city": "Kabupaten Bulungan Tj. Selor Hilir",
    "country": "ID",
    "provider": "AQICN",
    "lat": 3.0531299114227295,
    "lon": 117.39199829101562,
    "params": [],
    "last_update": null,
    "meta": {
      "uid": -416923,
      "name": "Kabupaten Bulungan Tj. Selor Hilir",
      "city": "Kabupaten Bulungan Tj. Selor Hilir",
      "lat": 3.0531299114227295,
      "lon": 117.39199829101562
    }
  },
  {
    "station_id": "aqicn--519142",
    "uid": -519142,
    "name": "Kabupaten Lumajang Ditrotunan",
    "city": "Kabupaten Lumajang Ditrotunan",
    "country": "ID",
    "provider": "AQICN",
    "lat": -8.135390281677246,
    "lon": 113.2239990234375,
    "params": [],
    "last_update": null,
    "meta": {
      "uid": -519142,
      "name": "Kabupaten Lumajang Ditrotunan",
      "city": "Kabupaten Lumajang Ditrotunan",
      "lat": -8.135390281677246,
      "lon": 113.2239990234375
    }
  },
  {
    "station_id": "aqicn--516745",
    "uid": -516745,
    "name": "Kabupaten Jombang Kepanjen",
    "city": "Kabupaten Jombang Kepanjen",
    "country": "ID",
    "provider": "AQICN",
    "lat": -7.55286979675293,
    "lon": 112.23699951171875,
    "params": [],
    "last_update": null,
    "meta": {
      "uid": -516745,
      "name": "Kabupaten Jombang Kepanjen",
      "city": "Kabupaten Jombang Kepanjen",
      "lat": -7.55286979675293,
      "lon": 112.23699951171875
    }
  },
  {
    "station_id": "aqicn--519124",
    "uid": -519124,
    "name": "Kabupaten Rembang Leteh",
    "city": "Kabupaten Rembang Leteh",
    "country": "ID",
    "provider": "AQICN",
    "lat": -6.717229843139648,
    "lon": 111.34400177001953,
    "params": [],
    "last_update": null,
    "meta": {
      "uid": -519124,
      "name": "Kabupaten Rembang Leteh",
      "city": "Kabupaten Rembang Leteh",
      "lat": -6.717229843139648,
      "lon": 111.34400177001953
    }
  },
  {
    "station_id": "aqicn--538438",
    "uid": -538438,
    "name": "Seaside Residences",
    "city": "Seaside Residences",
    "country": "ID",
    "provider": "AQICN",
    "lat": 1.3076219322854712,
    "lon": 103.9270617487457,
    "params": [],
    "last_update": null,
    "meta": {
      "uid": -538438,
      "name": "Seaside Residences",
      "city": "Seaside Residences",
      "lat": 1.3076219322854712,
      "lon": 103.9270617487457
    }
  },
  {
    "station_id": "aqicn--519187",
    "uid": -519187,
    "name": "Kota Kediri Ngronggo",
    "city": "Kota Kediri Ngronggo",
    "country": "ID",
    "provider": "AQICN",
    "lat": -7.812739849090576,
    "lon": 112.01399993896484,
    "params": [],
    "last_update": null,
    "meta": {
      "uid": -519187,
      "name": "Kota Kediri Ngronggo",
      "city": "Kota Kediri Ngronggo",
      "lat": -7.812739849090576,
      "lon": 112.01399993896484
    }
  },
  {
    "station_id": "aqicn--546346",
    "uid": -546346,
    "name": "Kabupaten Muaro Jambi",
    "city": "Kabupaten Muaro Jambi",
    "country": "ID",
    "provider": "AQICN",
    "lat": -1.452720046043396,
    "lon": 103.51799774169922,
    "params": [],
    "last_update": null,
    "meta": {
      "uid": -546346,
      "name": "Kabupaten Muaro Jambi",
      "city": "Kabupaten Muaro Jambi",
      "lat": -1.452720046043396,
      "lon": 103.51799774169922
    }
  },
  {
    "station_id": "aqicn--572263",
    "uid": -572263,
    "name": "",
    "city": "",
    "country": "ID",
    "provider": "AQICN",
    "lat": 2.521947,
    "lon": 113.833569,
    "params": [],
    "last_update": null,
    "meta": {
      "uid": -572263,
      "name": "",
      "city": "",
      "lat": 2.521947,
      "lon": 113.833569
    }
  },
  {
    "station_id": "aqicn--519127",
    "uid": -519127,
    "name": "Kabupaten Kubu Raya Kapuas",
    "city": "Kabupaten Kubu Raya Kapuas",
    "country": "ID",
    "provider": "AQICN",
    "lat": -0.12665799260139465,
    "lon": 109.40399932861328,
    "params": [],
    "last_update": null,
    "meta": {
      "uid": -519127,
      "name": "Kabupaten Kubu Raya Kapuas",
      "city": "Kabupaten Kubu Raya Kapuas",
      "lat": -0.12665799260139465,
      "lon": 109.40399932861328
    }
  },
  {
    "station_id": "aqicn--519133",
    "uid": -519133,
    "name": "Kota Tarakan Pamusian",
    "city": "Kota Tarakan Pamusian",
    "country": "ID",
    "provider": "AQICN",
    "lat": 3.310699939727783,
    "lon": 117.60099792480469,
    "params": [],
    "last_update": null,
    "meta": {
      "uid": -519133,
      "name": "Kota Tarakan Pamusian",
      "city": "Kota Tarakan Pamusian",
      "lat": 3.310699939727783,
      "lon": 117.60099792480469
    }
  },
  {
    "station_id": "aqicn-10490",
    "uid": 10490,
    "name": "Pangkalanbun, Indonesia",
    "city": "Pangkalanbun",
    "country": "ID",
    "provider": "AQICN",
    "lat": -2.676583,
    "lon": 111.626448,
    "params": [],
    "last_update": null,
    "meta": {
      "uid": 10490,
      "name": "Pangkalanbun, Indonesia",
      "city": "Pangkalanbun",
      "lat": -2.676583,
      "lon": 111.626448
    }
  },
  {
    "station_id": "aqicn-8645",
    "uid": 8645,
    "name": "Batam, Indonesia",
    "city": "Batam",
    "country": "ID",
    "provider": "AQICN",
    "lat": 1.124,
    "lon": 104.126,
    "params": [],
    "last_update": null,
    "meta": {
      "uid": 8645,
      "name": "Batam, Indonesia",
      "city": "Batam",
      "lat": 1.124,
      "lon": 104.126
    }
  },
  {
    "station_id": "aqicn--417103",
    "uid": -417103,
    "name": "DLH MEDAN 01",
    "city": "DLH MEDAN 01",
    "country": "ID",
    "provider": "AQICN",
    "lat": 3.5424299240112305,
    "lon": 98.67330169677734,
    "params": [],
    "last_update": null,
    "meta": {
      "uid": -417103,
      "name": "DLH MEDAN 01",
      "city": "DLH MEDAN 01",
      "lat": 3.5424299240112305,
      "lon": 98.67330169677734
    }
  },
  {
    "station_id": "aqicn--416764",
    "uid": -416764,
    "name": "Pontianak Tenggara",
    "city": "Pontianak Tenggara",
    "country": "ID",
    "provider": "AQICN",
    "lat": -0.03109000064432621,
    "lon": 109.3219985961914,
    "params": [],
    "last_update": null,
    "meta": {
      "uid": -416764,
      "name": "Pontianak Tenggara",
      "city": "Pontianak Tenggara",
      "lat": -0.03109000064432621,
      "lon": 109.3219985961914
    }
  },
  {
    "station_id": "aqicn-13653",
    "uid": 13653,
    "name": "Sleman, Indonesia",
    "city": "Sleman",
    "country": "ID",
    "provider": "AQICN",
    "lat": -7.731,
    "lon": 110.354,
    "params": [],
    "last_update": null,
    "meta": {
      "uid": 13653,
      "name": "Sleman, Indonesia",
      "city": "Sleman",
      "lat": -7.731,
      "lon": 110.354
    }
  },
  {
    "station_id": "aqicn-5779",
    "uid": 5779,
    "name": "Miri",
    "city": "Miri",
    "country": "ID",
    "provider": "AQICN",
    "lat": 4.333131,
    "lon": 113.99486,
    "params": [],
    "last_update": null,
    "meta": {
      "uid": 5779,
      "name": "Miri",
      "city": "Miri",
      "lat": 4.333131,
      "lon": 113.99486
    }
  },
  {
    "station_id": "aqicn--540724",
    "uid": -540724,
    "name": "Kabupaten Banjar",
    "city": "Kabupaten Banjar",
    "country": "ID",
    "provider": "AQICN",
    "lat": -3.426140069961548,
    "lon": 114.87999725341797,
    "params": [],
    "last_update": null,
    "meta": {
      "uid": -540724,
      "name": "Kabupaten Banjar",
      "city": "Kabupaten Banjar",
      "lat": -3.426140069961548,
      "lon": 114.87999725341797
    }
  },
  {
    "station_id": "aqicn--519019",
    "uid": -519019,
    "name": "Kabupaten Bojonegoro",
    "city": "Kabupaten Bojonegoro",
    "country": "ID",
    "provider": "AQICN",
    "lat": -7.15556001663208,
    "lon": 111.88200378417969,
    "params": [],
    "last_update": null,
    "meta": {
      "uid": -519019,
      "name": "Kabupaten Bojonegoro",
      "city": "Kabupaten Bojonegoro",
      "lat": -7.15556001663208,
      "lon": 111.88200378417969
    }
  },
  {
    "station_id": "aqicn--526057",
    "uid": -526057,
    "name": "Kabupaten Kampar Bangkinang",
    "city": "Kabupaten Kampar Bangkinang",
    "country": "ID",
    "provider": "AQICN",
    "lat": 0.3249180018901825,
    "lon": 101.0250015258789,
    "params": [],
    "last_update": null,
    "meta": {
      "uid": -526057,
      "name": "Kabupaten Kampar Bangkinang",
      "city": "Kabupaten Kampar Bangkinang",
      "lat": 0.3249180018901825,
      "lon": 101.0250015258789
    }
  },
  {
    "station_id": "aqicn--529681",
    "uid": -529681,
    "name": "Kabupaten Aceh Besar",
    "city": "Kabupaten Aceh Besar",
    "country": "ID",
    "provider": "AQICN",
    "lat": 5.300059795379639,
    "lon": 95.60540008544922,
    "params": [],
    "last_update": null,
    "meta": {
      "uid": -529681,
      "name": "Kabupaten Aceh Besar",
      "city": "Kabupaten Aceh Besar",
      "lat": 5.300059795379639,
      "lon": 95.60540008544922
    }
  },
  {
    "station_id": "aqicn--519205",
    "uid": -519205,
    "name": "Kabupaten Badung Sempidi",
    "city": "Kabupaten Badung Sempidi",
    "country": "ID",
    "provider": "AQICN",
    "lat": -8.603890419006348,
    "lon": 115.1780014038086,
    "params": [],
    "last_update": null,
    "meta": {
      "uid": -519205,
      "name": "Kabupaten Badung Sempidi",
      "city": "Kabupaten Badung Sempidi",
      "lat": -8.603890419006348,
      "lon": 115.1780014038086
    }
  },
  {
    "station_id": "aqicn--475168",
    "uid": -475168,
    "name": "Kabupaten Mojokerto Mojosari",
    "city": "Kabupaten Mojokerto Mojosari",
    "country": "ID",
    "provider": "AQICN",
    "lat": -7.508540153503418,
    "lon": 112.56099700927734,
    "params": [],
    "last_update": null,
    "meta": {
      "uid": -475168,
      "name": "Kabupaten Mojokerto Mojosari",
      "city": "Kabupaten Mojokerto Mojosari",
      "lat": -7.508540153503418,
      "lon": 112.56099700927734
    }
  },
  {
    "station_id": "aqicn--472675",
    "uid": -472675,
    "name": "Kabupaten Kendal Tunggulrejo",
    "city": "Kabupaten Kendal Tunggulrejo",
    "country": "ID",
    "provider": "AQICN",
    "lat": -6.931389808654785,
    "lon": 110.18699645996094,
    "params": [],
    "last_update": null,
    "meta": {
      "uid": -472675,
      "name": "Kabupaten Kendal Tunggulrejo",
      "city": "Kabupaten Kendal Tunggulrejo",
      "lat": -6.931389808654785,
      "lon": 110.18699645996094
    }
  },
  {
    "station_id": "aqicn--416821",
    "uid": -416821,
    "name": "Serang Sumurpecung",
    "city": "Serang Sumurpecung",
    "country": "ID",
    "provider": "AQICN",
    "lat": -6.119740009307861,
    "lon": 106.17400360107422,
    "params": [],
    "last_update": null,
    "meta": {
      "uid": -416821,
      "name": "Serang Sumurpecung",
      "city": "Serang Sumurpecung",
      "lat": -6.119740009307861,
      "lon": 106.17400360107422
    }
  },
  {
    "station_id": "aqicn--519112",
    "uid": -519112,
    "name": "Kabupaten Banyuwangi Mojopanggung",
    "city": "Kabupaten Banyuwangi Mojopanggung",
    "country": "ID",
    "provider": "AQICN",
    "lat": -8.211389541625977,
    "lon": 114.35099792480469,
    "params": [],
    "last_update": null,
    "meta": {
      "uid": -519112,
      "name": "Kabupaten Banyuwangi Mojopanggung",
      "city": "Kabupaten Banyuwangi Mojopanggung",
      "lat": -8.211389541625977,
      "lon": 114.35099792480469
    }
  },
  {
    "station_id": "aqicn--519007",
    "uid": -519007,
    "name": "Kabupaten Tuban",
    "city": "Kabupaten Tuban",
    "country": "ID",
    "provider": "AQICN",
    "lat": -6.895209789276123,
    "lon": 112.03900146484375,
    "params": [],
    "last_update": null,
    "meta": {
      "uid": -519007,
      "name": "Kabupaten Tuban",
      "city": "Kabupaten Tuban",
      "lat": -6.895209789276123,
      "lon": 112.03900146484375
    }
  },
  {
    "station_id": "aqicn--519121",
    "uid": -519121,
    "name": "Kota Bontang Tanjung Laut",
    "city": "Kota Bontang Tanjung Laut",
    "country": "ID",
    "provider": "AQICN",
    "lat": 0.12240999937057495,
    "lon": 117.48600006103516,
    "params": [],
    "last_update": null,
    "meta": {
      "uid": -519121,
      "name": "Kota Bontang Tanjung Laut",
      "city": "Kota Bontang Tanjung Laut",
      "lat": 0.12240999937057495,
      "lon": 117.48600006103516
    }
  },
  {
    "station_id": "aqicn--519151",
    "uid": -519151,
    "name": "Kabupaten Sambas Dalam Kaum",
    "city": "Kabupaten Sambas Dalam Kaum",
    "country": "ID",
    "provider": "AQICN",
    "lat": 1.3610999584197998,
    "lon": 109.3290023803711,
    "params": [],
    "last_update": null,
    "meta": {
      "uid": -519151,
      "name": "Kabupaten Sambas Dalam Kaum",
      "city": "Kabupaten Sambas Dalam Kaum",
      "lat": 1.3610999584197998,
      "lon": 109.3290023803711
    }
  },
  {
    "station_id": "aqicn--416818",
    "uid": -416818,
    "name": "Kabupaten Rokan Hilir Bangko",
    "city": "Kabupaten Rokan Hilir Bangko",
    "country": "ID",
    "provider": "AQICN",
    "lat": 2.1082100868225098,
    "lon": 100.8270034790039,
    "params": [],
    "last_update": null,
    "meta": {
      "uid": -416818,
      "name": "Kabupaten Rokan Hilir Bangko",
      "city": "Kabupaten Rokan Hilir Bangko",
      "lat": 2.1082100868225098,
      "lon": 100.8270034790039
    }
  },
  {
    "station_id": "aqicn--416929",
    "uid": -416929,
    "name": "Ternate Marikurubu",
    "city": "Ternate Marikurubu",
    "country": "ID",
    "provider": "AQICN",
    "lat": 0.7872629761695862,
    "lon": 127.3740005493164,
    "params": [],
    "last_update": null,
    "meta": {
      "uid": -416929,
      "name": "Ternate Marikurubu",
      "city": "Ternate Marikurubu",
      "lat": 0.7872629761695862,
      "lon": 127.3740005493164
    }
  },
  {
    "station_id": "aqicn-8292",
    "uid": 8292,
    "name": "Banjarbaru, Indonesia",
    "city": "Banjarbaru",
    "country": "ID",
    "provider": "AQICN",
    "lat": -3.475,
    "lon": 114.856,
    "params": [],
    "last_update": null,
    "meta": {
      "uid": 8292,
      "name": "Banjarbaru, Indonesia",
      "city": "Banjarbaru",
      "lat": -3.475,
      "lon": 114.856
    }
  },
  {
    "station_id": "aqicn-13505",
    "uid": 13505,
    "name": "Tanjung Harapan, Indonesia",
    "city": "Tanjung Harapan",
    "country": "ID",
    "provider": "AQICN",
    "lat": 2.83,
    "lon": 117.36,
    "params": [],
    "last_update": null,
    "meta": {
      "uid": 13505,
      "name": "Tanjung Harapan, Indonesia",
      "city": "Tanjung Harapan",
      "lat": 2.83,
      "lon": 117.36
    }
  },
  {
    "station_id": "aqicn--416911",
    "uid": -416911,
    "name": "Manokwari Gn. Sowi",
    "city": "Manokwari Gn. Sowi",
    "country": "ID",
    "provider": "AQICN",
    "lat": -0.8900089859962463,
    "lon": 134.03900146484375,
    "params": [],
    "last_update": null,
    "meta": {
      "uid": -416911,
      "name": "Manokwari Gn. Sowi",
      "city": "Manokwari Gn. Sowi",
      "lat": -0.8900089859962463,
      "lon": 134.03900146484375
    }
  },
  {
    "station_id": "aqicn--420154",
    "uid": -420154,
    "name": "Surabaya Tandes",
    "city": "Surabaya Tandes",
    "country": "ID",
    "provider": "AQICN",
    "lat": -7.258999824523926,
    "lon": 112.6780014038086,
    "params": [],
    "last_update": null,
    "meta": {
      "uid": -420154,
      "name": "Surabaya Tandes",
      "city": "Surabaya Tandes",
      "lat": -7.258999824523926,
      "lon": 112.6780014038086
    }
  },
  {
    "station_id": "aqicn--416797",
    "uid": -416797,
    "name": "Palu Panca Bhakti",
    "city": "Palu Panca Bhakti",
    "country": "ID",
    "provider": "AQICN",
    "lat": -0.8884109854698181,
    "lon": 119.86699676513672,
    "params": [],
    "last_update": null,
    "meta": {
      "uid": -416797,
      "name": "Palu Panca Bhakti",
      "city": "Palu Panca Bhakti",
      "lat": -0.8884109854698181,
      "lon": 119.86699676513672
    }
  },
  {
    "station_id": "aqicn--416896",
    "uid": -416896,
    "name": "Pangkalpinang Bukit Intan",
    "city": "Pangkalpinang Bukit Intan",
    "country": "ID",
    "provider": "AQICN",
    "lat": -2.149630069732666,
    "lon": 106.11100006103516,
    "params": [],
    "last_update": null,
    "meta": {
      "uid": -416896,
      "name": "Pangkalpinang Bukit Intan",
      "city": "Pangkalpinang Bukit Intan",
      "lat": -2.149630069732666,
      "lon": 106.11100006103516
    }
  },
  {
    "station_id": "aqicn-13648",
    "uid": 13648,
    "name": "Mempawah, Indonesia",
    "city": "Mempawah",
    "country": "ID",
    "provider": "AQICN",
    "lat": 0.124,
    "lon": 110.456,
    "params": [],
    "last_update": null,
    "meta": {
      "uid": 13648,
      "name": "Mempawah, Indonesia",
      "city": "Mempawah",
      "lat": 0.124,
      "lon": 110.456
    }
  },
  {
    "station_id": "aqicn--536500",
    "uid": -536500,
    "name": "Kabupaten Sumba Timur",
    "city": "Kabupaten Sumba Timur",
    "country": "ID",
    "provider": "AQICN",
    "lat": -9.675189971923828,
    "lon": 120.22899627685547,
    "params": [],
    "last_update": null,
    "meta": {
      "uid": -536500,
      "name": "Kabupaten Sumba Timur",
      "city": "Kabupaten Sumba Timur",
      "lat": -9.675189971923828,
      "lon": 120.22899627685547
    }
  },
  {
    "station_id": "aqicn--472585",
    "uid": -472585,
    "name": "Kabupaten Cilacap Sidakaya",
    "city": "Kabupaten Cilacap Sidakaya",
    "country": "ID",
    "provider": "AQICN",
    "lat": -7.722179889678955,
    "lon": 109.01699829101562,
    "params": [],
    "last_update": null,
    "meta": {
      "uid": -472585,
      "name": "Kabupaten Cilacap Sidakaya",
      "city": "Kabupaten Cilacap Sidakaya",
      "lat": -7.722179889678955,
      "lon": 109.01699829101562
    }
  },
  {
    "station_id": "aqicn--531553",
    "uid": -531553,
    "name": "Kabupaten Purwakarta Purnawarman",
    "city": "Kabupaten Purwakarta Purnawarman",
    "country": "ID",
    "provider": "AQICN",
    "lat": -6.564449787139893,
    "lon": 107.44599914550781,
    "params": [],
    "last_update": null,
    "meta": {
      "uid": -531553,
      "name": "Kabupaten Purwakarta Purnawarman",
      "city": "Kabupaten Purwakarta Purnawarman",
      "lat": -6.564449787139893,
      "lon": 107.44599914550781
    }
  },
  {
    "station_id": "aqicn--416860",
    "uid": -416860,
    "name": "Bandung Cihapit",
    "city": "Bandung Cihapit",
    "country": "ID",
    "provider": "AQICN",
    "lat": -6.9014201164245605,
    "lon": 107.6259994506836,
    "params": [],
    "last_update": null,
    "meta": {
      "uid": -416860,
      "name": "Bandung Cihapit",
      "city": "Bandung Cihapit",
      "lat": -6.9014201164245605,
      "lon": 107.6259994506836
    }
  },
  {
    "station_id": "aqicn--416845",
    "uid": -416845,
    "name": "Padang Padang Pasir",
    "city": "Padang Padang Pasir",
    "country": "ID",
    "provider": "AQICN",
    "lat": -0.9492400288581848,
    "lon": 100.35399627685547,
    "params": [],
    "last_update": null,
    "meta": {
      "uid": -416845,
      "name": "Padang Padang Pasir",
      "city": "Padang Padang Pasir",
      "lat": -0.9492400288581848,
      "lon": 100.35399627685547
    }
  },
  {
    "station_id": "aqicn--546343",
    "uid": -546343,
    "name": "Kabupaten Ogan Ilir",
    "city": "Kabupaten Ogan Ilir",
    "country": "ID",
    "provider": "AQICN",
    "lat": -3.255729913711548,
    "lon": 104.64700317382812,
    "params": [],
    "last_update": null,
    "meta": {
      "uid": -546343,
      "name": "Kabupaten Ogan Ilir",
      "city": "Kabupaten Ogan Ilir",
      "lat": -3.255729913711548,
      "lon": 104.64700317382812
    }
  },
  {
    "station_id": "aqicn-8289",
    "uid": 8289,
    "name": "Jambi, Indonesia",
    "city": "Jambi",
    "country": "ID",
    "provider": "AQICN",
    "lat": -1.6318964,
    "lon": 103.6414547,
    "params": [],
    "last_update": null,
    "meta": {
      "uid": 8289,
      "name": "Jambi, Indonesia",
      "city": "Jambi",
      "lat": -1.6318964,
      "lon": 103.6414547
    }
  },
  {
    "station_id": "aqicn--531544",
    "uid": -531544,
    "name": "Kabupaten Kapuas",
    "city": "Kabupaten Kapuas",
    "country": "ID",
    "provider": "AQICN",
    "lat": -2.965630054473877,
    "lon": 114.41500091552734,
    "params": [],
    "last_update": null,
    "meta": {
      "uid": -531544,
      "name": "Kabupaten Kapuas",
      "city": "Kabupaten Kapuas",
      "lat": -2.965630054473877,
      "lon": 114.41500091552734
    }
  },
  {
    "station_id": "aqicn--540727",
    "uid": -540727,
    "name": "Kabupaten Katingan",
    "city": "Kabupaten Katingan",
    "country": "ID",
    "provider": "AQICN",
    "lat": -1.8900699615478516,
    "lon": 113.41500091552734,
    "params": [],
    "last_update": null,
    "meta": {
      "uid": -540727,
      "name": "Kabupaten Katingan",
      "city": "Kabupaten Katingan",
      "lat": -1.8900699615478516,
      "lon": 113.41500091552734
    }
  },
  {
    "station_id": "aqicn--519043",
    "uid": -519043,
    "name": "Kabupaten Sragen Plumbungan",
    "city": "Kabupaten Sragen Plumbungan",
    "country": "ID",
    "provider": "AQICN",
    "lat": -7.446559906005859,
    "lon": 111.03600311279297,
    "params": [],
    "last_update": null,
    "meta": {
      "uid": -519043,
      "name": "Kabupaten Sragen Plumbungan",
      "city": "Kabupaten Sragen Plumbungan",
      "lat": -7.446559906005859,
      "lon": 111.03600311279297
    }
  },
  {
    "station_id": "aqicn--472480",
    "uid": -472480,
    "name": "Kabupaten Bandung Barat Saguling",
    "city": "Kabupaten Bandung Barat Saguling",
    "country": "ID",
    "provider": "AQICN",
    "lat": -6.839240074157715,
    "lon": 107.51100158691406,
    "params": [],
    "last_update": null,
    "meta": {
      "uid": -472480,
      "name": "Kabupaten Bandung Barat Saguling",
      "city": "Kabupaten Bandung Barat Saguling",
      "lat": -6.839240074157715,
      "lon": 107.51100158691406
    }
  },
  {
    "station_id": "aqicn--522064",
    "uid": -522064,
    "name": "Kota Tomohon",
    "city": "Kota Tomohon",
    "country": "ID",
    "provider": "AQICN",
    "lat": 1.3109999895095825,
    "lon": 124.80500030517578,
    "params": [],
    "last_update": null,
    "meta": {
      "uid": -522064,
      "name": "Kota Tomohon",
      "city": "Kota Tomohon",
      "lat": 1.3109999895095825,
      "lon": 124.80500030517578
    }
  },
  {
    "station_id": "aqicn--416920",
    "uid": -416920,
    "name": "Kendari Mandonga",
    "city": "Kendari Mandonga",
    "country": "ID",
    "provider": "AQICN",
    "lat": -3.9755001068115234,
    "lon": 122.5199966430664,
    "params": [],
    "last_update": null,
    "meta": {
      "uid": -416920,
      "name": "Kendari Mandonga",
      "city": "Kendari Mandonga",
      "lat": -3.9755001068115234,
      "lon": 122.5199966430664
    }
  },
  {
    "station_id": "aqicn--532207",
    "uid": -532207,
    "name": "Kabupaten Barito Kuala",
    "city": "Kabupaten Barito Kuala",
    "country": "ID",
    "provider": "AQICN",
    "lat": -2.9836199283599854,
    "lon": 114.73300170898438,
    "params": [],
    "last_update": null,
    "meta": {
      "uid": -532207,
      "name": "Kabupaten Barito Kuala",
      "city": "Kabupaten Barito Kuala",
      "lat": -2.9836199283599854,
      "lon": 114.73300170898438
    }
  },
  {
    "station_id": "aqicn--531550",
    "uid": -531550,
    "name": "Kabupaten Murung Raya",
    "city": "Kabupaten Murung Raya",
    "country": "ID",
    "provider": "AQICN",
    "lat": -0.6390770077705383,
    "lon": 114.53700256347656,
    "params": [],
    "last_update": null,
    "meta": {
      "uid": -531550,
      "name": "Kabupaten Murung Raya",
      "city": "Kabupaten Murung Raya",
      "lat": -0.6390770077705383,
      "lon": 114.53700256347656
    }
  },
  {
    "station_id": "aqicn-13645",
    "uid": 13645,
    "name": "Kotabaru, Indonesia",
    "city": "Kotabaru",
    "country": "ID",
    "provider": "AQICN",
    "lat": -3.3,
    "lon": 116.17,
    "params": [],
    "last_update": null,
    "meta": {
      "uid": 13645,
      "name": "Kotabaru, Indonesia",
      "city": "Kotabaru",
      "lat": -3.3,
      "lon": 116.17
    }
  },
  {
    "station_id": "aqicn--546973",
    "uid": -546973,
    "name": "Kabupaten Hulu Sungai Selatan",
    "city": "Kabupaten Hulu Sungai Selatan",
    "country": "ID",
    "provider": "AQICN",
    "lat": -2.783679962158203,
    "lon": 115.26300048828125,
    "params": [],
    "last_update": null,
    "meta": {
      "uid": -546973,
      "name": "Kabupaten Hulu Sungai Selatan",
      "city": "Kabupaten Hulu Sungai Selatan",
      "lat": -2.783679962158203,
      "lon": 115.26300048828125
    }
  },
  {
    "station_id": "aqicn--539257",
    "uid": -539257,
    "name": "Kabupaten Penukal Abab Lematang Ilir",
    "city": "Kabupaten Penukal Abab Lematang Ilir",
    "country": "ID",
    "provider": "AQICN",
    "lat": -3.3150100708007812,
    "lon": 103.88200378417969,
    "params": [],
    "last_update": null,
    "meta": {
      "uid": -539257,
      "name": "Kabupaten Penukal Abab Lematang Ilir",
      "city": "Kabupaten Penukal Abab Lematang Ilir",
      "lat": -3.3150100708007812,
      "lon": 103.88200378417969
    }
  },
  {
    "station_id": "aqicn--416878",
    "uid": -416878,
    "name": "Manado Wanea",
    "city": "Manado Wanea",
    "country": "ID",
    "provider": "AQICN",
    "lat": 1.4711600542068481,
    "lon": 124.84500122070312,
    "params": [],
    "last_update": null,
    "meta": {
      "uid": -416878,
      "name": "Manado Wanea",
      "city": "Manado Wanea",
      "lat": 1.4711600542068481,
      "lon": 124.84500122070312
    }
  },
  {
    "station_id": "aqicn-13650",
    "uid": 13650,
    "name": "Pesawaran, Indonesia",
    "city": "Pesawaran",
    "country": "ID",
    "provider": "AQICN",
    "lat": -5.17,
    "lon": 105.178,
    "params": [],
    "last_update": null,
    "meta": {
      "uid": 13650,
      "name": "Pesawaran, Indonesia",
      "city": "Pesawaran",
      "lat": -5.17,
      "lon": 105.178
    }
  },
  {
    "station_id": "aqicn--474973",
    "uid": -474973,
    "name": "Kabupaten Gresik Kebomas",
    "city": "Kabupaten Gresik Kebomas",
    "country": "ID",
    "provider": "AQICN",
    "lat": -7.170849800109863,
    "lon": 112.53399658203125,
    "params": [],
    "last_update": null,
    "meta": {
      "uid": -474973,
      "name": "Kabupaten Gresik Kebomas",
      "city": "Kabupaten Gresik Kebomas",
      "lat": -7.170849800109863,
      "lon": 112.53399658203125
    }
  },
  {
    "station_id": "aqicn--519013",
    "uid": -519013,
    "name": "Kabupaten Madiun Mejayan",
    "city": "Kabupaten Madiun Mejayan",
    "country": "ID",
    "provider": "AQICN",
    "lat": -7.5488200187683105,
    "lon": 111.66699981689453,
    "params": [],
    "last_update": null,
    "meta": {
      "uid": -519013,
      "name": "Kabupaten Madiun Mejayan",
      "city": "Kabupaten Madiun Mejayan",
      "lat": -7.5488200187683105,
      "lon": 111.66699981689453
    }
  },
  {
    "station_id": "aqicn--544657",
    "uid": -544657,
    "name": "Kabupaten Bogor Cisarua",
    "city": "Kabupaten Bogor Cisarua",
    "country": "ID",
    "provider": "AQICN",
    "lat": -6.69959020614624,
    "lon": 106.97000122070312,
    "params": [],
    "last_update": null,
    "meta": {
      "uid": -544657,
      "name": "Kabupaten Bogor Cisarua",
      "city": "Kabupaten Bogor Cisarua",
      "lat": -6.69959020614624,
      "lon": 106.97000122070312
    }
  },
  {
    "station_id": "aqicn--519145",
    "uid": -519145,
    "name": "Kabupaten Sukabumi Pelabuhanratu",
    "city": "Kabupaten Sukabumi Pelabuhanratu",
    "country": "ID",
    "provider": "AQICN",
    "lat": -6.992879867553711,
    "lon": 106.55899810791016,
    "params": [],
    "last_update": null,
    "meta": {
      "uid": -519145,
      "name": "Kabupaten Sukabumi Pelabuhanratu",
      "city": "Kabupaten Sukabumi Pelabuhanratu",
      "lat": -6.992879867553711,
      "lon": 106.55899810791016
    }
  },
  {
    "station_id": "aqicn--558130",
    "uid": -558130,
    "name": "Kabupaten Padang Pariaman",
    "city": "Kabupaten Padang Pariaman",
    "country": "ID",
    "provider": "AQICN",
    "lat": -0.6204630136489868,
    "lon": 100.30400085449219,
    "params": [],
    "last_update": null,
    "meta": {
      "uid": -558130,
      "name": "Kabupaten Padang Pariaman",
      "city": "Kabupaten Padang Pariaman",
      "lat": -0.6204630136489868,
      "lon": 100.30400085449219
    }
  },
  {
    "station_id": "aqicn-13651",
    "uid": 13651,
    "name": "Semarang, Indonesia",
    "city": "Semarang",
    "country": "ID",
    "provider": "AQICN",
    "lat": -6.985,
    "lon": 110.381,
    "params": [],
    "last_update": null,
    "meta": {
      "uid": 13651,
      "name": "Semarang, Indonesia",
      "city": "Semarang",
      "lat": -6.985,
      "lon": 110.381
    }
  },
  {
    "station_id": "aqicn--416851",
    "uid": -416851,
    "name": "Makassar Ujung Pandang",
    "city": "Makassar Ujung Pandang",
    "country": "ID",
    "provider": "AQICN",
    "lat": -5.135849952697754,
    "lon": 119.41400146484375,
    "params": [],
    "last_update": null,
    "meta": {
      "uid": -416851,
      "name": "Makassar Ujung Pandang",
      "city": "Makassar Ujung Pandang",
      "lat": -5.135849952697754,
      "lon": 119.41400146484375
    }
  },
  {
    "station_id": "aqicn--538435",
    "uid": -538435,
    "name": "DLH MEDAN 03",
    "city": "DLH MEDAN 03",
    "country": "ID",
    "provider": "AQICN",
    "lat": 3.588320016860962,
    "lon": 98.60810089111328,
    "params": [],
    "last_update": null,
    "meta": {
      "uid": -538435,
      "name": "DLH MEDAN 03",
      "city": "DLH MEDAN 03",
      "lat": 3.588320016860962,
      "lon": 98.60810089111328
    }
  },
  {
    "station_id": "aqicn--416842",
    "uid": -416842,
    "name": "Jakarta GBK",
    "city": "Jakarta GBK",
    "country": "ID",
    "provider": "AQICN",
    "lat": -6.2154998779296875,
    "lon": 106.8030014038086,
    "params": [],
    "last_update": null,
    "meta": {
      "uid": -416842,
      "name": "Jakarta GBK",
      "city": "Jakarta GBK",
      "lat": -6.2154998779296875,
      "lon": 106.8030014038086
    }
  },
  {
    "station_id": "aqicn--519139",
    "uid": -519139,
    "name": "Kabupaten Merauke Mandala",
    "city": "Kabupaten Merauke Mandala",
    "country": "ID",
    "provider": "AQICN",
    "lat": -8.508919715881348,
    "lon": 140.41000366210938,
    "params": [],
    "last_update": null,
    "meta": {
      "uid": -519139,
      "name": "Kabupaten Merauke Mandala",
      "city": "Kabupaten Merauke Mandala",
      "lat": -8.508919715881348,
      "lon": 140.41000366210938
    }
  },
  {
    "station_id": "aqicn--416941",
    "uid": -416941,
    "name": "Mamuju Ahmad Kirang",
    "city": "Mamuju Ahmad Kirang",
    "country": "ID",
    "provider": "AQICN",
    "lat": -2.676949977874756,
    "lon": 118.88999938964844,
    "params": [],
    "last_update": null,
    "meta": {
      "uid": -416941,
      "name": "Mamuju Ahmad Kirang",
      "city": "Mamuju Ahmad Kirang",
      "lat": -2.676949977874756,
      "lon": 118.88999938964844
    }
  },
  {
    "station_id": "aqicn--568273",
    "uid": -568273,
    "name": "Kabupaten Kutai Barat Sendawar",
    "city": "Kabupaten Kutai Barat Sendawar",
    "country": "ID",
    "provider": "AQICN",
    "lat": -0.23409999907016754,
    "lon": 115.69300079345703,
    "params": [],
    "last_update": null,
    "meta": {
      "uid": -568273,
      "name": "Kabupaten Kutai Barat Sendawar",
      "city": "Kabupaten Kutai Barat Sendawar",
      "lat": -0.23409999907016754,
      "lon": 115.69300079345703
    }
  },
  {
    "station_id": "aqicn--531556",
    "uid": -531556,
    "name": "Kabupaten Lampung Selatan Way Urang",
    "city": "Kabupaten Lampung Selatan Way Urang",
    "country": "ID",
    "provider": "AQICN",
    "lat": -5.716100215911865,
    "lon": 105.58200073242188,
    "params": [],
    "last_update": null,
    "meta": {
      "uid": -531556,
      "name": "Kabupaten Lampung Selatan Way Urang",
      "city": "Kabupaten Lampung Selatan Way Urang",
      "lat": -5.716100215911865,
      "lon": 105.58200073242188
    }
  },
  {
    "station_id": "aqicn--519136",
    "uid": -519136,
    "name": "Kabupaten Sekadau Sekadau Hilir",
    "city": "Kabupaten Sekadau Sekadau Hilir",
    "country": "ID",
    "provider": "AQICN",
    "lat": 0.005369000136852264,
    "lon": 110.89099884033203,
    "params": [],
    "last_update": null,
    "meta": {
      "uid": -519136,
      "name": "Kabupaten Sekadau Sekadau Hilir",
      "city": "Kabupaten Sekadau Sekadau Hilir",
      "lat": 0.005369000136852264,
      "lon": 110.89099884033203
    }
  },
  {
    "station_id": "aqicn-13647",
    "uid": 13647,
    "name": "Malang, Indonesia",
    "city": "Malang",
    "country": "ID",
    "provider": "AQICN",
    "lat": -7.9551897,
    "lon": 112.6119383,
    "params": [],
    "last_update": null,
    "meta": {
      "uid": 13647,
      "name": "Malang, Indonesia",
      "city": "Malang",
      "lat": -7.9551897,
      "lon": 112.6119383
    }
  },
  {
    "station_id": "aqicn-8288",
    "uid": 8288,
    "name": "Pekanbaru, Indonesia",
    "city": "Pekanbaru",
    "country": "ID",
    "provider": "AQICN",
    "lat": 0.46667,
    "lon": 101.4666,
    "params": [],
    "last_update": null,
    "meta": {
      "uid": 8288,
      "name": "Pekanbaru, Indonesia",
      "city": "Pekanbaru",
      "lat": 0.46667,
      "lon": 101.4666
    }
  },
  {
    "station_id": "aqicn--519115",
    "uid": -519115,
    "name": "Kota Pasuruan Petamanan",
    "city": "Kota Pasuruan Petamanan",
    "country": "ID",
    "provider": "AQICN",
    "lat": -7.6555399894714355,
    "lon": 112.90699768066406,
    "params": [],
    "last_update": null,
    "meta": {
      "uid": -519115,
      "name": "Kota Pasuruan Petamanan",
      "city": "Kota Pasuruan Petamanan",
      "lat": -7.6555399894714355,
      "lon": 112.90699768066406
    }
  },
  {
    "station_id": "aqicn-13644",
    "uid": 13644,
    "name": "Bengkulu, Indonesia",
    "city": "Bengkulu",
    "country": "ID",
    "provider": "AQICN",
    "lat": -3.865,
    "lon": 102.312,
    "params": [],
    "last_update": null,
    "meta": {
      "uid": 13644,
      "name": "Bengkulu, Indonesia",
      "city": "Bengkulu",
      "lat": -3.865,
      "lon": 102.312
    }
  },
  {
    "station_id": "aqicn--416758",
    "uid": -416758,
    "name": "Banjarmasin Kayu Tangi",
    "city": "Banjarmasin Kayu Tangi",
    "country": "ID",
    "provider": "AQICN",
    "lat": -3.295938014984131,
    "lon": 114.5893783569336,
    "params": [],
    "last_update": null,
    "meta": {
      "uid": -416758,
      "name": "Banjarmasin Kayu Tangi",
      "city": "Banjarmasin Kayu Tangi",
      "lat": -3.295938014984131,
      "lon": 114.5893783569336
    }
  },
  {
    "station_id": "aqicn--416908",
    "uid": -416908,
    "name": "Solo Manahan",
    "city": "Solo Manahan",
    "country": "ID",
    "provider": "AQICN",
    "lat": -7.554540157318115,
    "lon": 110.80599975585938,
    "params": [],
    "last_update": null,
    "meta": {
      "uid": -416908,
      "name": "Solo Manahan",
      "city": "Solo Manahan",
      "lat": -7.554540157318115,
      "lon": 110.80599975585938
    }
  },
  {
    "station_id": "aqicn--531565",
    "uid": -531565,
    "name": "Jakarta Timur Kebon Nanas",
    "city": "Jakarta Timur Kebon Nanas",
    "country": "ID",
    "provider": "AQICN",
    "lat": -6.233850002288818,
    "lon": 106.87699890136719,
    "params": [],
    "last_update": null,
    "meta": {
      "uid": -531565,
      "name": "Jakarta Timur Kebon Nanas",
      "city": "Jakarta Timur Kebon Nanas",
      "lat": -6.233850002288818,
      "lon": 106.87699890136719
    }
  },
  {
    "station_id": "aqicn--416776",
    "uid": -416776,
    "name": "Jambi Paal Lima",
    "city": "Jambi Paal Lima",
    "country": "ID",
    "provider": "AQICN",
    "lat": -1.6297229528427124,
    "lon": 103.60739135742188,
    "params": [],
    "last_update": null,
    "meta": {
      "uid": -416776,
      "name": "Jambi Paal Lima",
      "city": "Jambi Paal Lima",
      "lat": -1.6297229528427124,
      "lon": 103.60739135742188
    }
  },
  {
    "station_id": "aqicn--536509",
    "uid": -536509,
    "name": "Kabupaten Manggarai Barat Wae Kalamb",
    "city": "Kabupaten Manggarai Barat Wae Kalamb",
    "country": "ID",
    "provider": "AQICN",
    "lat": -8.495189666748047,
    "lon": 119.89399719238281,
    "params": [],
    "last_update": null,
    "meta": {
      "uid": -536509,
      "name": "Kabupaten Manggarai Barat Wae Kalamb",
      "city": "Kabupaten Manggarai Barat Wae Kalamb",
      "lat": -8.495189666748047,
      "lon": 119.89399719238281
    }
  },
  {
    "station_id": "aqicn--418576",
    "uid": -418576,
    "name": "Kuching",
    "city": "Kuching",
    "country": "ID",
    "provider": "AQICN",
    "lat": 1.5503207,
    "lon": 110.34696,
    "params": [],
    "last_update": null,
    "meta": {
      "uid": -418576,
      "name": "Kuching",
      "city": "Kuching",
      "lat": 1.5503207,
      "lon": 110.34696
    }
  },
  {
    "station_id": "aqicn--526099",
    "uid": -526099,
    "name": "Kabupaten Aceh Tengah",
    "city": "Kabupaten Aceh Tengah",
    "country": "ID",
    "provider": "AQICN",
    "lat": 4.624090194702148,
    "lon": 96.84210205078125,
    "params": [],
    "last_update": null,
    "meta": {
      "uid": -526099,
      "name": "Kabupaten Aceh Tengah",
      "city": "Kabupaten Aceh Tengah",
      "lat": 4.624090194702148,
      "lon": 96.84210205078125
    }
  },
  {
    "station_id": "aqicn--418018",
    "uid": -418018,
    "name": "Ambon Gong Perdamaian",
    "city": "Ambon Gong Perdamaian",
    "country": "ID",
    "provider": "AQICN",
    "lat": -3.6934099197387695,
    "lon": 128.18099975585938,
    "params": [],
    "last_update": null,
    "meta": {
      "uid": -418018,
      "name": "Ambon Gong Perdamaian",
      "city": "Ambon Gong Perdamaian",
      "lat": -3.6934099197387695,
      "lon": 128.18099975585938
    }
  },
  {
    "station_id": "aqicn--417100",
    "uid": -417100,
    "name": "Kabupaten Tangerang Tigaraksa",
    "city": "Kabupaten Tangerang Tigaraksa",
    "country": "ID",
    "provider": "AQICN",
    "lat": -6.269869804382324,
    "lon": 106.48400115966797,
    "params": [],
    "last_update": null,
    "meta": {
      "uid": -417100,
      "name": "Kabupaten Tangerang Tigaraksa",
      "city": "Kabupaten Tangerang Tigaraksa",
      "lat": -6.269869804382324,
      "lon": 106.48400115966797
    }
  },
  {
    "station_id": "aqicn--416938",
    "uid": -416938,
    "name": "Gorontalo Taman Kota",
    "city": "Gorontalo Taman Kota",
    "country": "ID",
    "provider": "AQICN",
    "lat": 0.5517759919166565,
    "lon": 123.05699920654297,
    "params": [],
    "last_update": null,
    "meta": {
      "uid": -416938,
      "name": "Gorontalo Taman Kota",
      "city": "Gorontalo Taman Kota",
      "lat": 0.5517759919166565,
      "lon": 123.05699920654297
    }
  },
  {
    "station_id": "aqicn--531547",
    "uid": -531547,
    "name": "Kabupaten Gunung Mas",
    "city": "Kabupaten Gunung Mas",
    "country": "ID",
    "provider": "AQICN",
    "lat": -1.1160999536514282,
    "lon": 113.84100341796875,
    "params": [],
    "last_update": null,
    "meta": {
      "uid": -531547,
      "name": "Kabupaten Gunung Mas",
      "city": "Kabupaten Gunung Mas",
      "lat": -1.1160999536514282,
      "lon": 113.84100341796875
    }
  },
  {
    "station_id": "aqicn--472450",
    "uid": -472450,
    "name": "Kabupaten Semarang Candirejo",
    "city": "Kabupaten Semarang Candirejo",
    "country": "ID",
    "provider": "AQICN",
    "lat": -7.148530006408691,
    "lon": 110.40699768066406,
    "params": [],
    "last_update": null,
    "meta": {
      "uid": -472450,
      "name": "Kabupaten Semarang Candirejo",
      "city": "Kabupaten Semarang Candirejo",
      "lat": -7.148530006408691,
      "lon": 110.40699768066406
    }
  },
  {
    "station_id": "aqicn--472489",
    "uid": -472489,
    "name": "Kota Cilegon Pulomerak",
    "city": "Kota Cilegon Pulomerak",
    "country": "ID",
    "provider": "AQICN",
    "lat": -5.920650005340576,
    "lon": 106.00700378417969,
    "params": [],
    "last_update": null,
    "meta": {
      "uid": -472489,
      "name": "Kota Cilegon Pulomerak",
      "city": "Kota Cilegon Pulomerak",
      "lat": -5.920650005340576,
      "lon": 106.00700378417969
    }
  },
  {
    "station_id": "aqicn--531562",
    "uid": -531562,
    "name": "Kabupaten Musi Banyuasin Serasan Jaya",
    "city": "Kabupaten Musi Banyuasin Serasan Jaya",
    "country": "ID",
    "provider": "AQICN",
    "lat": -2.8742001056671143,
    "lon": 103.83699798583984,
    "params": [],
    "last_update": null,
    "meta": {
      "uid": -531562,
      "name": "Kabupaten Musi Banyuasin Serasan Jaya",
      "city": "Kabupaten Musi Banyuasin Serasan Jaya",
      "lat": -2.8742001056671143,
      "lon": 103.83699798583984
    }
  },
  {
    "station_id": "aqicn--539251",
    "uid": -539251,
    "name": "Kabupaten Musi Rawas",
    "city": "Kabupaten Musi Rawas",
    "country": "ID",
    "provider": "AQICN",
    "lat": -3.244539976119995,
    "lon": 103.00900268554688,
    "params": [],
    "last_update": null,
    "meta": {
      "uid": -539251,
      "name": "Kabupaten Musi Rawas",
      "city": "Kabupaten Musi Rawas",
      "lat": -3.244539976119995,
      "lon": 103.00900268554688
    }
  },
  {
    "station_id": "aqicn--416926",
    "uid": -416926,
    "name": "DLH MEDAN 02",
    "city": "DLH MEDAN 02",
    "country": "ID",
    "provider": "AQICN",
    "lat": 3.652869939804077,
    "lon": 98.66580200195312,
    "params": [],
    "last_update": null,
    "meta": {
      "uid": -416926,
      "name": "DLH MEDAN 02",
      "city": "DLH MEDAN 02",
      "lat": 3.652869939804077,
      "lon": 98.66580200195312
    }
  },
  {
    "station_id": "aqicn--416824",
    "uid": -416824,
    "name": "Samarinda Taman Segiri",
    "city": "Samarinda Taman Segiri",
    "country": "ID",
    "provider": "AQICN",
    "lat": -0.4890739917755127,
    "lon": 117.14700317382812,
    "params": [],
    "last_update": null,
    "meta": {
      "uid": -416824,
      "name": "Samarinda Taman Segiri",
      "city": "Samarinda Taman Segiri",
      "lat": -0.4890739917755127,
      "lon": 117.14700317382812
    }
  },
  {
    "station_id": "aqicn--416746",
    "uid": -416746,
    "name": "Palembang Bukit Kecil",
    "city": "Palembang Bukit Kecil",
    "country": "ID",
    "provider": "AQICN",
    "lat": -2.9803860187530518,
    "lon": 104.74724578857422,
    "params": [],
    "last_update": null,
    "meta": {
      "uid": -416746,
      "name": "Palembang Bukit Kecil",
      "city": "Palembang Bukit Kecil",
      "lat": -2.9803860187530518,
      "lon": 104.74724578857422
    }
  },
  {
    "station_id": "aqicn-11755",
    "uid": 11755,
    "name": "Kototabang, Indonesia",
    "city": "Kototabang",
    "country": "ID",
    "provider": "AQICN",
    "lat": -0.251,
    "lon": 100.382,
    "params": [],
    "last_update": null,
    "meta": {
      "uid": 11755,
      "name": "Kototabang, Indonesia",
      "city": "Kototabang",
      "lat": -0.251,
      "lon": 100.382
    }
  },
  {
    "station_id": "aqicn--519148",
    "uid": -519148,
    "name": "Kota Sorong Remu Utara",
    "city": "Kota Sorong Remu Utara",
    "country": "ID",
    "provider": "AQICN",
    "lat": -0.8803150057792664,
    "lon": 131.28799438476562,
    "params": [],
    "last_update": null,
    "meta": {
      "uid": -519148,
      "name": "Kota Sorong Remu Utara",
      "city": "Kota Sorong Remu Utara",
      "lat": -0.8803150057792664,
      "lon": 131.28799438476562
    }
  }
]